,City,Cloudiness,Country,Date,Humidity,Lat,Lng,Max Temp,Wind Speed
0,udachnyy,0.0,RU,1603601764.0,78.0,66.42,112.4,-13.0,4.0
1,eureka,6.0,US,1603601540.0,87.0,40.8,-124.16,10.0,0.84
2,dingle,100.0,PH,1603601764.0,90.0,11.0,122.67,25.64,0.53
3,cabo san lucas,0.0,MX,1603601764.0,82.0,22.89,-109.91,27.22,5.67
4,avarua,56.0,CK,1603601765.0,69.0,-21.21,-159.78,24.0,6.2
5,leningradskiy,0.0,RU,1603601765.0,91.0,69.38,178.42,-4.93,4.51
6,saint-philippe,0.0,RE,1603601635.0,61.0,-21.36,55.77,26.0,9.8
7,hithadhoo,29.0,MV,1603601766.0,76.0,-0.6,73.08,28.54,4.39
8,viedma,80.0,AR,1603601766.0,78.0,-40.81,-63.0,19.44,1.34
9,bredasdorp,30.0,ZA,1603601766.0,77.0,-34.53,20.04,16.0,2.6
10,punta arenas,90.0,CL,1603601606.0,100.0,-53.15,-70.92,5.0,4.1
11,fairbanks,90.0,US,1603601746.0,85.0,64.84,-147.72,-1.11,1.15
12,ushuaia,75.0,AR,1603601690.0,75.0,-54.8,-68.3,6.0,2.63
13,butaritari,93.0,KI,1603601767.0,69.0,3.07,172.79,27.37,3.0
15,olinda,40.0,BR,1603601773.0,78.0,-8.01,-34.86,26.0,2.6
16,springbok,49.0,ZA,1603601773.0,43.0,-29.66,17.89,15.74,0.14
17,hermanus,55.0,ZA,1603601773.0,87.0,-34.42,19.23,16.11,3.03
18,albany,76.0,US,1603601702.0,69.0,42.6,-73.97,7.22,1.34
20,ponta do sol,20.0,PT,1603601624.0,72.0,32.67,-17.1,18.0,4.1
21,mataura,95.0,NZ,1603601774.0,93.0,-46.19,168.86,11.67,1.34
22,port lincoln,43.0,AU,1603601775.0,54.0,-34.73,135.87,13.11,7.88
23,cedar city,1.0,US,1603601754.0,35.0,37.68,-113.06,14.0,6.2
24,yenotayevka,100.0,RU,1603601775.0,77.0,47.25,47.03,14.37,5.73
25,hobart,40.0,AU,1603601424.0,46.0,-42.88,147.33,15.56,5.7
26,mount gambier,90.0,AU,1603601775.0,58.0,-37.83,140.77,13.0,9.8
27,bluff,97.0,NZ,1603601776.0,93.0,-46.6,168.33,11.67,1.34
28,mosquera,75.0,CO,1603601722.0,93.0,4.71,-74.23,11.0,1.5
29,tabuk,78.0,PH,1603601776.0,81.0,17.42,121.44,27.81,3.46
30,qaanaaq,100.0,GL,1603601777.0,92.0,77.48,-69.36,-7.81,5.96
31,tuatapere,100.0,NZ,1603601680.0,93.0,-46.13,167.68,11.67,1.34
32,cape town,75.0,ZA,1603601501.0,82.0,-33.93,18.42,16.11,2.1
33,burgeo,100.0,CA,1603601778.0,91.0,47.62,-57.62,11.03,1.94
34,aix-les-bains,0.0,FR,1603601778.0,93.0,45.68,5.92,8.0,2.6
35,santiago del estero,61.0,AR,1603601617.0,64.0,-27.8,-64.26,25.88,3.32
36,georgetown,40.0,MY,1603601600.0,79.0,5.41,100.34,29.0,3.1
38,san cristobal,36.0,VE,1603601779.0,82.0,7.77,-72.22,19.0,0.6
39,puerto ayora,99.0,EC,1603601779.0,95.0,-0.74,-90.35,19.44,0.89
40,northam,37.0,GB,1603601779.0,90.0,51.03,-4.22,8.33,5.81
41,bambous virieux,75.0,MU,1603601621.0,78.0,-20.34,57.76,23.89,7.7
42,nekhayevskiy,99.0,RU,1603601780.0,86.0,50.41,41.76,11.67,0.89
43,ludvika,100.0,SE,1603601780.0,100.0,60.15,15.19,4.0,3.6
44,juba,26.0,SS,1603601780.0,78.0,4.85,31.58,25.34,0.18
45,sept-iles,20.0,CA,1603601689.0,64.0,50.2,-66.38,1.0,2.6
46,mahebourg,75.0,MU,1603601634.0,78.0,-20.41,57.7,23.0,7.7
47,hambantota,20.0,LK,1603601781.0,62.0,6.12,81.12,32.0,4.1
48,carnarvon,75.0,AU,1603601781.0,69.0,-24.87,113.63,25.0,7.7
49,cayenne,20.0,GF,1603601782.0,100.0,4.93,-52.33,24.0,1.0
50,dahra,0.0,DZ,1603601782.0,93.0,36.25,0.85,13.0,2.64
51,salekhard,73.0,RU,1603601782.0,95.0,66.53,66.6,-12.76,3.91
52,kloulklubed,75.0,PW,1603601783.0,70.0,7.04,134.26,30.0,4.1
53,miami,90.0,US,1603601502.0,94.0,25.77,-80.19,25.0,5.18
54,talnakh,75.0,RU,1603601600.0,92.0,69.49,88.4,-11.0,5.0
55,hamilton,90.0,US,1603601661.0,70.0,39.18,-84.53,8.33,5.1
56,kapaa,1.0,US,1603601615.0,74.0,22.08,-159.32,27.0,3.1
57,katakwi,80.0,UG,1603601784.0,80.0,1.89,33.97,21.74,0.42
58,salinopolis,6.0,BR,1603601528.0,87.0,-0.61,-47.36,25.56,3.81
59,rikitea,98.0,PF,1603601785.0,83.0,-23.12,-134.97,23.85,8.81
60,esperance,40.0,AU,1603601785.0,46.0,-33.87,121.9,21.0,4.1
61,cherskiy,25.0,RU,1603601785.0,95.0,68.75,161.3,-10.26,1.59
62,chuy,12.0,UY,1603601786.0,98.0,-33.7,-53.46,16.73,2.73
63,nogliki,78.0,RU,1603601786.0,76.0,51.83,143.17,8.29,4.37
64,saskylakh,100.0,RU,1603601786.0,94.0,71.92,114.08,-11.33,8.06
65,port hardy,5.0,CA,1603601786.0,64.0,50.7,-127.42,3.0,3.1
66,xining,98.0,CN,1603601787.0,44.0,36.62,101.77,11.19,1.66
67,yellowknife,40.0,CA,1603601787.0,78.0,62.46,-114.35,-5.56,2.1
68,busselton,79.0,AU,1603601787.0,22.0,-33.65,115.33,30.0,2.56
69,lebu,0.0,CL,1603601630.0,82.0,-37.62,-73.65,8.52,2.18
70,schleswig,100.0,DE,1603601788.0,76.0,54.52,9.55,14.0,8.7
71,mwense,72.0,ZM,1603601788.0,34.0,-10.38,28.7,23.99,1.94
73,bethel,72.0,US,1603601633.0,75.0,41.37,-73.41,6.67,0.89
74,mogadishu,75.0,SO,1603601789.0,74.0,2.04,45.34,27.0,4.1
75,tuktoyaktuk,75.0,CA,1603601680.0,92.0,69.45,-133.04,-5.0,7.7
76,porlamar,86.0,VE,1603601517.0,83.0,10.96,-63.85,28.0,4.6
78,wattegama,20.0,LK,1603601790.0,62.0,6.8,81.48,32.0,4.1
79,ugoofaaru,100.0,MV,1603601790.0,73.0,5.67,73.0,28.6,5.52
80,longyearbyen,75.0,SJ,1603601791.0,85.0,78.22,15.64,-6.0,2.1
81,bengkulu,99.0,ID,1603601791.0,67.0,-3.8,102.27,28.97,2.6
82,geraldton,0.0,AU,1603601732.0,16.0,-28.77,114.6,35.0,6.2
84,port-gentil,100.0,GA,1603601792.0,84.0,-0.72,8.78,25.68,5.66
85,souillac,75.0,MU,1603601792.0,78.0,-20.52,57.52,23.0,7.7
86,tromso,75.0,NO,1603601728.0,85.0,69.65,18.96,1.0,6.2
87,comodoro rivadavia,0.0,AR,1603601792.0,77.0,-45.87,-67.5,15.0,3.1
88,chabahar,0.0,IR,1603601507.0,26.0,25.29,60.64,22.0,5.1
89,kavieng,33.0,PG,1603601616.0,70.0,-2.57,150.8,29.13,2.06
90,east london,90.0,ZA,1603601793.0,100.0,-33.02,27.91,19.0,3.6
91,gat,40.0,IL,1603601793.0,64.0,31.61,34.76,24.0,3.6
92,middelburg,0.0,ZA,1603601794.0,42.0,-25.78,29.46,20.62,1.04
94,ardakan,0.0,IR,1603601794.0,32.0,32.31,54.02,13.0,1.0
95,antofagasta,90.0,CL,1603601568.0,87.0,-23.65,-70.4,14.0,3.1
96,kaitangata,100.0,NZ,1603601795.0,87.0,-46.28,169.85,12.22,10.28
97,takoradi,53.0,GH,1603601795.0,89.0,4.88,-1.76,24.95,3.6
98,nanortalik,100.0,GL,1603601623.0,89.0,60.14,-45.24,0.51,2.8
99,benguela,25.0,AO,1603601795.0,79.0,-12.58,13.41,23.63,2.56
100,itacoatiara,93.0,BR,1603601796.0,93.0,-3.14,-58.44,23.48,1.21
101,vardo,98.0,NO,1603601796.0,74.0,70.37,31.11,4.03,7.67
103,mar del plata,90.0,AR,1603601515.0,100.0,-38.0,-57.56,15.0,3.1
106,tura,35.0,IN,1603601797.0,84.0,25.52,90.22,25.96,1.61
107,victoria,60.0,HK,1603601635.0,56.0,22.29,114.16,27.78,0.89
108,atuona,21.0,PF,1603601797.0,74.0,-9.8,-139.03,26.02,9.17
109,staryy nadym,45.0,RU,1603601798.0,96.0,65.61,72.68,-8.93,4.67
110,kindia,81.0,GN,1603601798.0,95.0,10.06,-12.87,20.1,0.56
111,provideniya,67.0,RU,1603601798.0,91.0,64.38,-173.3,0.42,3.93
112,monrovia,40.0,LR,1603601799.0,94.0,6.3,-10.8,25.0,0.23
113,tocopilla,87.0,CL,1603601513.0,68.0,-22.09,-70.2,16.18,2.35
114,arraial do cabo,100.0,BR,1603601799.0,93.0,-22.97,-42.03,20.99,10.5
115,new norfolk,51.0,AU,1603601800.0,46.0,-42.78,147.06,15.56,0.45
116,batagay-alyta,100.0,RU,1603601800.0,89.0,67.8,130.41,-10.15,1.94
117,ventspils,40.0,LV,1603601800.0,100.0,57.39,21.56,3.0,2.71
118,podborany,75.0,CZ,1603601801.0,100.0,50.23,13.41,6.67,2.6
119,santa maria,0.0,BR,1603601801.0,94.0,-29.68,-53.81,18.52,2.1
120,whitehorse,75.0,CA,1603601801.0,67.0,60.72,-135.05,-6.0,6.2
121,ostrovnoy,100.0,RU,1603601600.0,96.0,68.05,39.51,0.15,8.16
123,dinguiraye,0.0,GN,1603601802.0,66.0,11.3,-10.72,20.71,0.9
124,garbolovo,100.0,RU,1603601802.0,86.0,60.34,30.5,3.89,1.41
126,labuhan,71.0,ID,1603601794.0,60.0,-6.88,112.21,31.16,1.85
127,vaitape,99.0,PF,1603601803.0,74.0,-16.52,-151.75,26.95,3.63
128,nikolskoye,75.0,RU,1603601803.0,93.0,59.7,30.79,4.0,2.0
129,alofi,96.0,NU,1603601804.0,83.0,-19.06,-169.92,25.0,8.7
130,husavik,90.0,IS,1603601619.0,80.0,66.04,-17.34,5.0,8.7
131,iqaluit,75.0,CA,1603601804.0,73.0,63.75,-68.51,-7.0,1.0
132,vale da amoreira,76.0,PT,1603601804.0,91.0,39.07,-7.7,16.11,3.13
133,cockburn town,95.0,TC,1603601756.0,81.0,21.46,-71.14,28.43,10.14
134,beringovskiy,98.0,RU,1603601805.0,96.0,63.05,179.32,-0.65,5.22
135,torbay,90.0,CA,1603601805.0,100.0,47.67,-52.73,10.56,7.2
136,pyaozerskiy,100.0,RU,1603601806.0,96.0,65.83,31.17,-0.06,2.68
137,kruisfontein,7.0,ZA,1603601806.0,91.0,-34.0,24.73,17.22,0.45
138,sandakan,20.0,MY,1603601806.0,83.0,5.84,118.12,29.0,2.1
139,zhuhai,20.0,CN,1603601806.0,65.0,22.28,113.57,30.0,3.1
140,canakkale,0.0,TR,1603601806.0,87.0,40.08,26.83,21.11,1.0
141,karpathos,20.0,GR,1603601807.0,83.0,35.51,27.21,21.0,5.7
142,chicama,61.0,PE,1603601807.0,78.0,-7.84,-79.15,17.58,1.67
143,port alfred,1.0,ZA,1603601807.0,83.0,-33.59,26.89,19.92,5.66
146,iberia,90.0,US,1603601808.0,93.0,29.95,-91.75,16.67,4.1
147,vila velha,75.0,BR,1603601808.0,94.0,-20.33,-40.29,23.33,2.6
148,severo-kurilsk,69.0,RU,1603601808.0,78.0,50.68,156.12,8.76,3.79
149,harper,66.0,LR,1603601808.0,89.0,4.38,-7.72,24.94,3.03
150,chokurdakh,53.0,RU,1603601667.0,96.0,70.63,147.92,-10.34,3.77
151,barrow,90.0,US,1603601809.0,80.0,71.29,-156.79,-1.0,7.2
152,bam,0.0,IR,1603601809.0,23.0,29.11,58.36,19.99,5.42
153,taltal,96.0,CL,1603601420.0,76.0,-25.4,-70.48,13.69,0.31
154,lasa,20.0,IT,1603601810.0,93.0,46.62,10.7,8.89,1.15
155,auki,18.0,SB,1603601717.0,71.0,-8.77,160.7,29.36,1.62
156,east wenatchee bench,90.0,US,1603601810.0,51.0,47.43,-120.28,2.0,4.6
157,altamira,57.0,BR,1603601810.0,71.0,-3.2,-52.21,25.33,1.44
158,vanimo,71.0,PG,1603601811.0,72.0,-2.67,141.3,28.87,2.14
159,haines junction,100.0,CA,1603601772.0,77.0,60.75,-137.51,-3.45,0.89
160,fortuna,90.0,US,1603601784.0,87.0,40.6,-124.16,10.0,3.1
161,lompoc,90.0,US,1603601634.0,72.0,34.64,-120.46,17.0,1.39
162,peleduy,100.0,RU,1603601812.0,91.0,59.63,112.74,1.37,3.72
163,kodinar,8.0,IN,1603601812.0,46.0,20.79,70.7,30.29,1.16
164,daru,87.0,PG,1603601812.0,72.0,-9.08,143.21,28.61,4.24
165,berdigestyakh,0.0,RU,1603601513.0,95.0,62.1,126.7,-2.61,2.3
166,puerto colombia,20.0,CO,1603601813.0,100.0,10.99,-74.95,24.0,1.5
167,omachi,20.0,JP,1603601813.0,44.0,36.5,137.87,17.22,1.5
168,jamestown,90.0,US,1603601624.0,74.0,42.1,-79.24,3.89,1.76
169,cap malheureux,64.0,MU,1603601814.0,73.0,-19.98,57.61,24.44,5.36
170,manbij,75.0,SY,1603601814.0,47.0,36.53,37.95,13.0,1.63
171,tasiilaq,68.0,GL,1603601815.0,97.0,65.61,-37.64,0.0,2.6
172,vaini,75.0,TO,1603601815.0,88.0,-21.2,-175.2,24.0,4.6
173,johnstown,40.0,US,1603601815.0,69.0,40.33,-78.92,4.0,2.1
174,tiksi,100.0,RU,1603601815.0,91.0,71.69,128.87,-12.47,12.35
176,alzamay,100.0,RU,1603601816.0,87.0,55.56,98.66,-0.34,5.18
177,naze,20.0,JP,1603601816.0,50.0,28.37,129.48,25.0,5.1
179,los llanos de aridane,90.0,ES,1603601817.0,64.0,28.66,-17.92,21.0,3.1
180,bosaso,20.0,SO,1603601777.0,61.0,11.28,49.18,28.0,3.6
181,saint george,32.0,US,1603601818.0,39.0,37.1,-113.58,18.0,2.1
182,kodiak,75.0,US,1603601818.0,87.0,57.79,-152.41,7.0,2.6
184,port elizabeth,90.0,ZA,1603601596.0,88.0,-33.92,25.57,18.0,3.6
185,belaya gora,98.0,RU,1603601819.0,96.0,68.53,146.42,-8.32,1.98
186,svetlaya,25.0,RU,1603601820.0,52.0,46.54,138.33,11.44,6.52
187,yantal,100.0,RU,1603601820.0,96.0,56.85,105.25,0.06,5.52
188,fort nelson,75.0,CA,1603601660.0,78.0,58.81,-122.7,-9.0,2.1
189,lamu,1.0,KE,1603601821.0,83.0,-2.27,40.9,26.0,4.8
190,grand gaube,70.0,MU,1603601821.0,73.0,-20.01,57.66,24.44,5.36
191,salym,100.0,RU,1603601822.0,97.0,60.06,71.48,-3.21,4.89
193,grindavik,75.0,IS,1603601822.0,81.0,63.84,-22.43,6.0,9.8
194,poum,58.0,NC,1603601822.0,77.0,-20.23,164.02,25.54,6.21
195,fare,84.0,PF,1603601823.0,74.0,-16.7,-151.02,26.76,4.05
196,les cayes,100.0,HT,1603601663.0,83.0,18.2,-73.75,26.2,3.74
197,nishihara,40.0,JP,1603601678.0,41.0,26.18,127.76,26.0,4.6
199,castro,54.0,BR,1603601605.0,95.0,-24.79,-50.01,15.3,1.51
200,nemuro,75.0,JP,1603601824.0,47.0,43.32,145.57,13.0,7.7
201,aswan,0.0,EG,1603601824.0,35.0,24.09,32.91,22.26,6.96
202,narsaq,100.0,GL,1603601825.0,73.0,60.92,-46.05,-4.0,2.1
203,conceicao do araguaia,100.0,BR,1603601525.0,93.0,-8.26,-49.26,23.01,3.46
204,ilulissat,2.0,GL,1603601731.0,52.0,69.22,-51.1,-8.0,4.6
205,severobaykalsk,100.0,RU,1603601825.0,70.0,55.65,109.32,4.09,0.97
206,agadez,0.0,NE,1603601826.0,27.0,19.75,10.25,17.77,4.82
207,deputatskiy,1.0,RU,1603601826.0,89.0,69.3,139.9,-13.9,2.82
208,bereda,100.0,ES,1603601826.0,99.0,43.27,-7.54,11.67,4.47
209,henties bay,4.0,NA,1603601827.0,93.0,-22.12,14.28,13.89,0.45
210,dukat,100.0,RU,1603601827.0,94.0,62.55,155.55,-1.04,1.32
211,kiruna,51.0,SE,1603601827.0,100.0,67.86,20.23,-2.0,1.0
212,katobu,69.0,ID,1603601827.0,51.0,-4.94,122.53,32.87,1.91
213,upernavik,63.0,GL,1603601597.0,88.0,72.79,-56.15,-6.72,3.23
214,saldanha,1.0,ZA,1603601620.0,72.0,-33.01,17.94,16.0,0.5
216,boyolangu,84.0,ID,1603601829.0,66.0,-8.12,111.89,29.86,4.15
217,mitsamiouli,3.0,KM,1603601829.0,74.0,-11.38,43.28,26.55,7.05
218,port blair,56.0,IN,1603601588.0,68.0,11.67,92.75,30.02,1.06
219,sheridan,90.0,US,1603601830.0,78.0,44.83,-106.92,-9.0,5.1
220,laksham,51.0,BD,1603601831.0,73.0,23.25,91.14,29.21,1.6
221,soro,51.0,IN,1603601831.0,54.0,21.29,86.69,30.79,2.54
222,fukue,20.0,JP,1603601831.0,63.0,32.69,128.84,19.0,5.7
223,adrar,89.0,MR,1603601831.0,15.0,20.5,-10.07,28.37,2.35
224,phuket,75.0,TH,1603601832.0,94.0,8.0,98.25,27.22,0.5
225,yumen,38.0,CN,1603601832.0,45.0,40.28,97.2,9.75,3.76
226,belyy yar,0.0,RU,1603601832.0,75.0,53.6,91.39,0.0,5.0
227,kaifeng,0.0,CN,1603601833.0,32.0,34.79,114.35,21.0,2.0
229,veriora,54.0,EE,1603601834.0,93.0,58.01,27.36,8.33,4.1
232,sobolevo,95.0,RU,1603601835.0,93.0,54.43,31.9,7.74,3.79
233,sapozhok,100.0,RU,1603601835.0,96.0,53.94,40.68,7.22,3.52
234,bubaque,0.0,GW,1603601723.0,81.0,11.28,-15.83,28.17,5.71
235,awbari,0.0,LY,1603601835.0,34.0,26.59,12.78,15.15,0.89
236,myre,2.0,NO,1603601836.0,74.0,69.1,15.95,2.0,5.1
237,hilo,90.0,US,1603601601.0,74.0,19.73,-155.09,27.0,4.1
238,guerrero negro,1.0,MX,1603601610.0,86.0,27.98,-114.06,18.85,6.04
240,hasaki,20.0,JP,1603601837.0,32.0,35.73,140.83,22.78,4.6
241,norfolk,1.0,US,1603601837.0,61.0,42.17,-71.25,8.0,4.1
242,atar,66.0,MR,1603601837.0,25.0,20.52,-13.05,28.53,4.33
243,turukhansk,97.0,RU,1603601838.0,96.0,65.82,87.98,-10.5,2.51
244,qasigiannguit,2.0,GL,1603601838.0,52.0,68.82,-51.19,-8.0,4.6
245,tame,85.0,CO,1603601838.0,83.0,6.46,-71.73,22.16,1.6
247,bandar-e lengeh,0.0,IR,1603601839.0,37.0,26.56,54.88,28.0,4.1
248,pisco,0.0,PE,1603601667.0,87.0,-13.7,-76.22,16.11,5.1
249,hualmay,78.0,PE,1603601839.0,85.0,-11.1,-77.61,16.49,2.7
252,agirish,99.0,RU,1603601840.0,97.0,61.92,63.02,-3.81,3.08
253,south lake tahoe,1.0,US,1603601831.0,65.0,38.93,-119.98,7.0,1.5
254,vila franca do campo,40.0,PT,1603601840.0,77.0,37.72,-25.43,18.0,2.6
255,astana,75.0,KZ,1603601571.0,86.0,51.18,71.45,1.0,14.0
256,garowe,36.0,SO,1603601599.0,41.0,8.41,48.48,26.47,2.65
257,pundaguitan,99.0,PH,1603601841.0,73.0,6.37,126.17,28.23,4.18
258,svetlogorsk,9.0,BY,1603601842.0,95.0,52.63,29.73,6.68,3.12
260,lorengau,57.0,PG,1603601619.0,62.0,-2.02,147.27,29.98,3.03
261,sao joao da barra,100.0,BR,1603601842.0,93.0,-21.64,-41.05,22.38,5.37
263,saa,100.0,CM,1603601843.0,99.0,4.37,11.45,20.71,0.9
264,laizhou,57.0,CN,1603601843.0,28.0,37.17,119.92,19.33,3.15
265,flin flon,100.0,CA,1603601844.0,90.0,54.77,-101.86,-5.99,3.34
266,nichinan,20.0,JP,1603601844.0,37.0,31.6,131.37,21.0,3.6
267,puerto escondido,94.0,MX,1603601844.0,82.0,15.85,-97.07,26.66,2.59
268,hailin,0.0,CN,1603601845.0,52.0,44.58,129.42,9.0,7.02
269,vredendal,83.0,ZA,1603601845.0,82.0,-31.67,18.5,15.51,2.31
270,yining,99.0,CN,1603601846.0,63.0,29.04,114.56,16.35,0.28
271,alihe,0.0,CN,1603601846.0,54.0,50.57,123.72,7.96,1.16
272,zhangjiakou,72.0,CN,1603601846.0,31.0,40.81,114.88,15.77,0.69
273,ternate,98.0,ID,1603601847.0,68.0,0.8,127.4,29.22,1.86
274,ambulu,30.0,ID,1603601847.0,70.0,-8.35,113.61,29.8,3.25
275,thompson,90.0,CA,1603601847.0,92.0,55.74,-97.86,-6.0,2.6
276,broken hill,75.0,AU,1603601848.0,41.0,-31.95,141.43,14.0,8.7
277,lerwick,36.0,GB,1603601848.0,81.0,60.15,-1.15,9.0,5.7
278,mahon,0.0,ES,1603601848.0,77.0,39.89,4.27,18.0,4.1
279,aripuana,88.0,BR,1603601849.0,91.0,-9.17,-60.63,21.94,0.54
281,aklavik,40.0,CA,1603601849.0,55.0,68.22,-135.01,1.0,3.6
283,luderitz,63.0,NA,1603601850.0,57.0,-26.65,15.16,17.46,8.94
284,pevek,1.0,RU,1603601850.0,91.0,69.7,170.31,-2.2,7.53
285,sitka,1.0,US,1603601850.0,64.0,57.05,-135.33,2.0,2.1
286,kismayo,95.0,SO,1603601851.0,72.0,-0.36,42.55,27.63,5.79
287,tual,42.0,ID,1603601851.0,75.0,-5.67,132.75,28.21,2.83
288,klaksvik,99.0,FO,1603601620.0,93.0,62.23,-6.59,8.0,8.7
289,egvekinot,8.0,RU,1603601851.0,95.0,66.32,-179.17,-5.61,2.88
292,urumqi,0.0,CN,1603601852.0,61.0,43.8,87.6,8.0,2.0
293,sioux lookout,90.0,CA,1603601852.0,79.0,50.1,-91.92,-4.0,1.5
295,maraba,74.0,BR,1603601853.0,82.0,-5.37,-49.12,23.42,1.32
296,benghazi,0.0,LY,1603601853.0,63.0,32.12,20.07,21.05,3.72
297,savonlinna,17.0,FI,1603601854.0,100.0,61.87,28.88,-2.0,0.5
298,portland,20.0,US,1603601854.0,52.0,45.52,-122.68,7.0,5.7
300,vrede,7.0,ZA,1603601854.0,50.0,-27.43,29.17,19.02,0.82
301,karratha,0.0,AU,1603601630.0,47.0,-20.74,116.85,28.02,8.75
302,prachin buri,96.0,TH,1603601855.0,47.0,14.08,101.67,29.97,0.63
303,dikson,53.0,RU,1603601651.0,92.0,73.51,80.55,-6.16,4.13
304,kungurtug,100.0,RU,1603601856.0,84.0,50.6,97.52,-2.32,4.67
305,tigil,100.0,RU,1603601856.0,73.0,57.8,158.67,3.65,3.95
306,ribeira grande,100.0,PT,1603601856.0,75.0,38.52,-28.7,18.79,5.63
308,morondava,52.0,MG,1603601857.0,49.0,-20.28,44.28,28.51,2.09
309,podlesnoye,100.0,RU,1603601857.0,84.0,51.82,47.01,9.94,1.15
310,atyrau,75.0,KZ,1603601679.0,100.0,47.12,51.88,11.0,3.0
311,goderich,93.0,CA,1603601858.0,87.0,43.75,-81.72,3.33,2.87
312,aden,0.0,YE,1603601654.0,58.0,12.78,45.04,29.29,6.37
314,kalmunai,100.0,LK,1603601858.0,58.0,7.42,81.82,30.79,2.71
315,eregli,37.0,TR,1603601859.0,32.0,37.51,34.05,15.27,0.72
316,arlit,0.0,NE,1603601859.0,19.0,18.74,7.39,22.53,4.1
317,la paz,20.0,BO,1603601859.0,64.0,-16.5,-68.15,7.0,2.1
318,yar-sale,12.0,RU,1603601859.0,96.0,66.83,70.83,-8.84,3.22
319,chardara,0.0,KZ,1603601860.0,41.0,41.25,67.97,12.11,2.29
320,pangkalanbuun,98.0,ID,1603601860.0,65.0,-2.68,111.62,31.12,1.64
321,swellendam,97.0,ZA,1603601646.0,77.0,-34.02,20.44,16.0,2.6
322,paita,49.0,PE,1603601618.0,81.0,-5.09,-81.11,17.35,4.39
323,abonnema,75.0,NG,1603601861.0,100.0,4.71,6.79,23.0,1.89
324,aykhal,0.0,RU,1603601861.0,78.0,66.0,111.5,-13.0,4.0
325,hakkari,8.0,TR,1603601861.0,35.0,37.58,44.17,13.84,0.27
326,maarianhamina,75.0,AX,1603601861.0,85.0,60.1,19.93,0.0,0.5
327,isangel,40.0,VU,1603601862.0,65.0,-19.55,169.27,28.0,3.1
328,san patricio,1.0,US,1603601862.0,72.0,28.02,-97.52,21.67,2.6
329,lanxi,29.0,CN,1603601862.0,53.0,29.22,119.48,21.21,1.82
331,kahului,40.0,US,1603601863.0,48.0,20.89,-156.47,31.0,6.2
332,getashen,0.0,AM,1603601863.0,32.0,40.04,43.94,8.0,1.5
333,langham,90.0,CA,1603601864.0,67.0,52.37,-106.97,-5.56,5.1
334,lumding,90.0,IN,1603601864.0,88.0,25.75,93.17,24.0,3.1
335,tabory,100.0,RU,1603601864.0,96.0,58.52,64.55,0.72,0.97
336,ponta delgada,40.0,PT,1603601864.0,77.0,37.73,-25.67,18.0,2.6
337,ancud,20.0,CL,1603601865.0,93.0,-41.87,-73.82,6.67,2.6
338,coihaique,40.0,CL,1603601865.0,81.0,-45.58,-72.07,6.0,2.6
339,cabedelo,40.0,BR,1603601865.0,94.0,-6.98,-34.83,24.0,2.1
340,matamoros,5.0,MX,1603601866.0,24.0,25.53,-103.25,26.0,1.36
341,sao filipe,100.0,CV,1603601590.0,73.0,14.9,-24.5,26.93,4.38
342,faanui,97.0,PF,1603601866.0,76.0,-16.48,-151.75,26.45,3.91
343,ndele,100.0,CF,1603601601.0,90.0,8.41,20.65,22.73,0.47
344,zitlala,94.0,MX,1603601867.0,74.0,17.63,-99.08,13.63,0.67
345,cavalcante,99.0,BR,1603601867.0,84.0,-13.8,-47.46,20.27,0.49
346,granville,75.0,AU,1603601867.0,93.0,-33.83,151.02,13.33,9.8
347,valparaiso,90.0,CL,1603601568.0,87.0,-33.04,-71.63,12.0,0.5
348,katsuura,20.0,JP,1603601651.0,40.0,35.13,140.3,22.78,2.1
349,jumla,0.0,NP,1603601868.0,21.0,29.27,82.18,19.16,1.76
350,kaeo,6.0,NZ,1603601868.0,69.0,-35.1,173.78,20.56,3.13
351,bulungu,77.0,CD,1603601869.0,96.0,-4.55,18.6,21.93,0.58
352,maragogi,25.0,BR,1603601588.0,84.0,-9.01,-35.22,23.84,2.77
353,corn island,98.0,NI,1603601869.0,81.0,12.17,-83.04,27.69,6.23
354,san ramon,1.0,US,1603601869.0,87.0,37.78,-121.98,13.89,3.6
355,basco,99.0,PH,1603601870.0,85.0,20.45,121.97,26.08,13.31
357,nuuk,100.0,GL,1603601587.0,73.0,64.18,-51.72,-3.0,4.1
358,obo,97.0,CF,1603601870.0,93.0,5.4,26.49,22.16,0.9
359,rundu,31.0,NA,1603601871.0,28.0,-17.93,19.77,21.5,1.89
360,qaqortoq,100.0,GL,1603601871.0,73.0,60.72,-46.03,-4.0,2.1
361,kununurra,40.0,AU,1603601604.0,27.0,-15.77,128.73,38.0,4.6
362,vao,63.0,NC,1603601872.0,82.0,-22.67,167.48,22.99,8.29
363,sabinas hidalgo,1.0,MX,1603601872.0,85.0,26.5,-100.17,18.83,1.92
364,ahipara,33.0,NZ,1603601872.0,72.0,-35.17,173.17,19.06,4.13
365,kashi,75.0,CN,1603601873.0,19.0,39.45,75.98,13.0,2.0
366,kasongo-lunda,100.0,CD,1603601873.0,91.0,-6.47,16.82,21.99,0.49
367,dunedin,100.0,NZ,1603601680.0,74.0,-45.87,170.5,15.0,10.73
368,breytovo,75.0,RU,1603601874.0,88.0,58.3,37.86,1.39,3.04
369,izumo,20.0,JP,1603601874.0,52.0,35.37,132.77,19.0,8.2
370,kimbe,78.0,PG,1603601874.0,70.0,-5.55,150.14,30.08,1.81
371,seoul,20.0,KR,1603601741.0,34.0,37.57,126.98,18.0,1.5
372,khatanga,100.0,RU,1603601874.0,95.0,71.97,102.5,-13.35,6.13
373,mantua,0.0,IT,1603601875.0,96.0,45.17,10.78,9.44,0.89
374,mount isa,8.0,AU,1603601875.0,25.0,-20.73,139.5,31.0,4.6
375,sayat,0.0,TM,1603601875.0,53.0,38.78,63.88,10.0,2.1
376,chapais,75.0,CA,1603601876.0,85.0,49.78,-74.85,-5.0,2.6
377,kyshtovka,100.0,RU,1603601876.0,94.0,56.55,76.63,-1.45,8.07
378,grants,1.0,US,1603601876.0,26.0,35.15,-107.85,15.0,2.6
379,puerto del rosario,40.0,ES,1603601877.0,73.0,28.5,-13.86,21.0,8.2
380,xuanhua,85.0,CN,1603601877.0,29.0,40.61,115.04,17.21,0.47
381,marrakesh,0.0,MA,1603601877.0,82.0,31.63,-8.01,13.0,1.5
382,malanville,93.0,BJ,1603601877.0,31.0,11.87,3.39,22.88,1.52
383,vestmannaeyjar,91.0,IS,1603601760.0,70.0,63.44,-20.27,7.29,9.76
384,havre-saint-pierre,1.0,CA,1603601878.0,80.0,50.23,-63.6,1.0,3.6
385,wajima,75.0,JP,1603601878.0,51.0,37.4,136.9,17.0,6.2
386,longjiang,58.0,CN,1603601878.0,43.0,47.33,123.18,10.58,2.66
387,mocuba,0.0,MZ,1603601878.0,65.0,-16.84,36.99,25.3,1.14
388,san juan,0.0,AR,1603601879.0,73.0,-31.54,-68.54,19.34,4.63
389,bac lieu,45.0,VN,1603601879.0,69.0,9.29,105.72,29.36,1.91
390,north bend,1.0,US,1603601879.0,93.0,43.41,-124.22,9.0,3.6
391,neftegorsk,100.0,RU,1603601880.0,82.0,52.8,51.17,8.44,2.59
393,lazaro cardenas,21.0,MX,1603601757.0,90.0,17.96,-102.2,26.84,1.91
394,omsukchan,100.0,RU,1603601880.0,93.0,62.53,155.8,-0.1,1.54
395,loiza,20.0,PR,1603601881.0,74.0,18.43,-65.88,28.0,2.6
396,hami,0.0,CN,1603601767.0,37.0,42.8,93.45,12.32,0.9
397,kargasok,98.0,RU,1603601702.0,92.0,59.06,80.86,-3.9,5.3
398,varel,100.0,DE,1603601881.0,72.0,53.4,8.14,15.0,8.2
399,ngunguru,0.0,NZ,1603601882.0,69.0,-35.62,174.5,20.56,3.13
400,coquimbo,4.0,CL,1603601568.0,82.0,-29.95,-71.34,13.0,2.1
403,rustenburg,0.0,ZA,1603601883.0,49.0,-25.67,27.24,23.67,1.17
404,turayf,0.0,SA,1603601883.0,35.0,31.67,38.66,13.0,3.6
405,clyde river,75.0,CA,1603601591.0,78.0,70.47,-68.59,-8.0,7.2
406,lagos,93.0,NG,1603601868.0,88.0,6.58,3.75,25.47,1.36
407,manono,74.0,CD,1603601883.0,83.0,-7.3,27.42,23.7,0.09
408,gigmoto,100.0,PH,1603601884.0,83.0,13.78,124.39,27.56,8.93
409,jurado,100.0,CO,1603601884.0,88.0,7.11,-77.76,24.18,0.68
410,korla,0.0,CN,1603601885.0,36.0,41.76,86.15,13.39,5.65
411,port hedland,0.0,AU,1603601885.0,55.0,-20.32,118.57,30.0,8.2
412,wejherowo,0.0,PL,1603601885.0,93.0,54.61,18.24,10.56,3.1
413,yeppoon,40.0,AU,1603601885.0,83.0,-23.13,150.73,24.0,2.6
415,bonavista,100.0,CA,1603601886.0,80.0,48.65,-53.11,9.44,2.68
416,codrington,75.0,AU,1603601886.0,64.0,-38.27,141.97,11.56,10.07
417,lata,99.0,PT,1603601682.0,81.0,40.16,-8.33,17.22,8.05
418,hovd,0.0,MN,1603601887.0,56.0,48.01,91.64,1.64,0.93
419,iralaya,100.0,HN,1603601793.0,94.0,15.0,-83.23,24.56,1.6
420,zacatepec,21.0,MX,1603601887.0,76.0,18.65,-99.2,18.89,0.67
421,livingston,0.0,GB,1603601888.0,75.0,55.9,-3.52,8.0,4.6
422,belgrade,40.0,RS,1603601614.0,100.0,44.8,20.47,13.0,0.5
423,lavrentiya,22.0,RU,1603601888.0,90.0,65.58,-171.0,1.05,3.97
424,shigony,100.0,RU,1603601888.0,78.0,53.39,48.68,9.05,1.38
425,fuerte olimpo,0.0,PY,1603601889.0,75.0,-21.04,-57.87,25.18,1.68
426,carnot,99.0,CF,1603601889.0,94.0,4.94,15.87,20.68,1.07
427,fallon,1.0,US,1603601889.0,39.0,39.47,-118.78,15.56,3.6
428,caravelas,100.0,BR,1603601619.0,89.0,-17.71,-39.25,23.61,3.39
429,kushmurun,69.0,KZ,1603601890.0,84.0,52.45,64.63,8.61,5.66
430,kavaratti,20.0,IN,1603601890.0,74.0,10.57,72.64,29.0,2.1
431,kaele,80.0,CM,1603601890.0,30.0,10.11,14.45,24.31,4.07
433,touros,40.0,BR,1603601786.0,94.0,-5.2,-35.46,23.0,1.5
434,aksu,93.0,CN,1603601891.0,29.0,41.12,80.26,14.65,2.36
435,bandarbeyla,44.0,SO,1603601891.0,63.0,9.49,50.81,25.88,2.35
436,calvillo,12.0,MX,1603601892.0,51.0,21.85,-102.72,17.08,1.96
437,carballo,20.0,ES,1603601892.0,82.0,43.21,-8.69,14.0,2.6
438,kankan,1.0,GN,1603601892.0,60.0,10.39,-9.31,21.09,1.3
439,cam ranh,40.0,VN,1603601892.0,79.0,11.92,109.16,30.0,1.5
440,neiafu,75.0,TO,1603601893.0,94.0,-18.65,-173.98,24.0,2.6
441,verkhnevilyuysk,96.0,RU,1603601666.0,95.0,63.45,120.32,-1.62,2.03
442,minot,90.0,US,1603601893.0,67.0,48.23,-101.3,-6.0,5.7
444,hay river,40.0,CA,1603601894.0,92.0,60.82,-115.8,-8.0,1.5
445,makaha,1.0,US,1603601894.0,88.0,21.47,-158.22,27.0,0.3
446,russell,90.0,US,1603601894.0,93.0,32.35,-85.2,20.0,0.69
447,jacareacanga,39.0,BR,1603601895.0,97.0,-6.22,-57.75,21.87,0.45
448,gloucester,0.0,GB,1603601895.0,92.0,51.87,-2.24,8.33,1.79
450,bathsheba,20.0,BB,1603601785.0,74.0,13.22,-59.52,28.0,10.3
451,eravur,99.0,LK,1603601900.0,50.0,7.77,81.61,31.78,0.97
452,hachinohe,75.0,JP,1603601900.0,71.0,40.5,141.5,11.0,7.7
453,flinders,99.0,AU,1603601634.0,81.0,-34.58,150.86,13.89,2.24
454,lubango,42.0,AO,1603601648.0,58.0,-14.92,13.49,17.98,0.4
455,fairview,1.0,US,1603601901.0,61.0,40.81,-74.0,10.56,1.5
456,bongandanga,100.0,CD,1603601901.0,99.0,1.5,21.05,21.29,1.09
457,semporna,20.0,MY,1603601901.0,74.0,4.48,118.61,30.0,2.6
458,yaan,100.0,NG,1603601902.0,95.0,7.38,8.57,21.61,3.5
459,monterey,4.0,US,1603601902.0,91.0,36.25,-121.25,8.33,2.24
460,sibolga,91.0,ID,1603601902.0,62.0,1.74,98.78,29.66,2.71
461,constitucion,64.0,CL,1603601903.0,84.0,-35.33,-72.42,10.2,3.74
462,vieste,40.0,IT,1603601903.0,87.0,41.88,16.18,11.11,2.1
463,aktau,20.0,KZ,1603601903.0,87.0,43.65,51.2,16.0,4.0
464,faya,0.0,SA,1603601681.0,25.0,18.39,42.45,14.0,0.46
465,norman wells,40.0,CA,1603601904.0,84.0,65.28,-126.83,-13.0,1.0
466,lisakovsk,71.0,KZ,1603601904.0,88.0,52.54,62.49,8.22,4.48
468,chegdomyn,30.0,RU,1603601904.0,60.0,51.12,133.02,6.69,4.73
469,koshurnikovo,84.0,RU,1603601904.0,85.0,54.17,93.3,-2.93,3.7
470,san quintin,100.0,MX,1603601905.0,80.0,30.48,-115.95,18.48,4.16
471,maua,20.0,BR,1603601905.0,82.0,-23.67,-46.46,20.0,0.5
472,cidreira,32.0,BR,1603601905.0,91.0,-30.18,-50.21,20.53,7.57
473,veraval,16.0,IN,1603601905.0,49.0,20.9,70.37,29.82,1.72
474,mandera,92.0,KE,1603601906.0,63.0,3.94,41.87,27.22,4.43
476,jingdezhen,73.0,CN,1603601906.0,49.0,29.29,117.21,22.26,0.36
477,palembang,40.0,ID,1603601906.0,70.0,-2.92,104.75,30.0,1.5
478,kulhudhuffushi,49.0,MV,1603601907.0,73.0,6.62,73.07,28.31,4.79
479,post falls,1.0,US,1603601688.0,67.0,47.72,-116.95,-3.0,4.1
480,sola,27.0,VU,1603601907.0,80.0,-13.88,167.55,26.99,7.12
481,burnie,2.0,AU,1603601901.0,37.0,-41.07,145.92,15.0,4.02
482,bandiagara,65.0,ML,1603601648.0,16.0,14.35,-3.61,26.46,4.73
483,varhaug,100.0,NO,1603601908.0,99.0,58.61,5.65,10.56,2.68
484,kemijarvi,83.0,FI,1603601908.0,98.0,66.71,27.43,-2.62,1.24
485,kushima,20.0,JP,1603601909.0,37.0,31.46,131.23,21.0,3.6
486,olafsvik,100.0,IS,1603601909.0,82.0,64.89,-23.71,5.57,17.03
487,quatre cocos,75.0,MU,1603601909.0,78.0,-20.21,57.76,24.44,7.7
488,kitimat,26.0,CA,1603601909.0,62.0,54.05,-128.65,-0.56,1.77
489,diffa,84.0,NE,1603601910.0,26.0,13.32,12.61,25.29,4.51
491,gladstone,75.0,AU,1603601910.0,78.0,-23.85,151.25,24.0,3.6
492,saint-georges,75.0,GD,1603601910.0,88.0,12.06,-61.75,27.0,9.3
493,tacoronte,90.0,ES,1603601911.0,87.0,28.48,-16.41,17.78,1.5
495,tallahassee,1.0,US,1603601884.0,94.0,30.44,-84.28,20.0,1.17
496,sajanan,40.0,TN,1603601912.0,77.0,37.06,9.24,17.0,3.1
497,havoysund,97.0,NO,1603601912.0,79.0,71.0,24.66,2.0,6.7
498,saurimo,84.0,AO,1603601912.0,93.0,-9.66,20.39,19.17,1.24
499,uong bi,90.0,VN,1603601912.0,69.0,21.03,106.78,24.0,4.1
500,luangwa,62.0,ZM,1603601913.0,51.0,-15.62,30.42,26.71,4.67
501,vostok,100.0,RU,1603601913.0,100.0,46.49,135.88,-0.51,2.38
502,ilam,39.0,NP,1603601913.0,78.0,26.92,87.92,21.89,2.49
503,majene,86.0,ID,1603601913.0,64.0,-3.54,118.97,30.4,2.47
504,southbridge,43.0,US,1603601914.0,70.0,42.08,-72.03,7.22,0.89
505,felipe carrillo puerto,100.0,MX,1603601914.0,99.0,19.58,-88.05,23.14,1.55
506,divo,15.0,CI,1603601914.0,99.0,5.84,-5.36,21.09,1.07
507,usinsk,100.0,RU,1603601914.0,98.0,65.99,57.53,-5.4,2.34
508,dargaville,67.0,NZ,1603601915.0,71.0,-35.93,173.88,19.53,0.76
509,presidente medici,100.0,BR,1603601915.0,95.0,-11.18,-61.9,23.2,1.68
510,oregon,16.0,US,1603601915.0,69.0,44.0,-120.5,0.56,1.34
511,palmer,90.0,US,1603601744.0,61.0,42.16,-72.33,8.0,6.2
512,leua,88.0,SK,1603601916.0,97.0,48.22,18.61,11.67,1.89
513,namtsy,0.0,RU,1603601916.0,78.0,62.72,129.67,-10.0,1.0
514,benjamin constant,40.0,BR,1603601917.0,100.0,-4.38,-70.03,24.0,1.0
515,boca do acre,100.0,BR,1603601917.0,96.0,-8.75,-67.4,23.31,1.28
516,mabaruma,66.0,GY,1603601918.0,95.0,8.2,-59.78,24.59,1.14
517,mindelo,75.0,CV,1603601918.0,78.0,16.89,-24.98,26.0,11.3
518,polson,29.0,US,1603601919.0,87.0,47.69,-114.16,-13.33,2.56
521,lagoa,96.0,PT,1603601920.0,71.0,39.05,-27.98,17.86,7.17
522,necochea,12.0,AR,1603601920.0,92.0,-38.55,-58.74,12.78,2.68
523,gornyy,73.0,RU,1603601921.0,85.0,55.12,83.91,-2.69,6.29
524,raga,96.0,SS,1603601921.0,87.0,8.46,25.68,22.56,1.54
525,aquidauana,0.0,BR,1603601921.0,79.0,-20.47,-55.79,24.7,1.46
526,slave lake,1.0,CA,1603601701.0,57.0,55.28,-114.77,-7.0,6.2
527,krasnoselkup,85.0,RU,1603601922.0,95.0,65.7,82.47,-11.93,4.18
528,samarai,82.0,PG,1603601922.0,78.0,-10.62,150.67,27.88,3.16
529,luwuk,98.0,ID,1603601633.0,58.0,-0.95,122.79,30.93,1.79
530,kolvereid,100.0,NO,1603601623.0,78.0,64.87,11.6,2.74,9.21
531,terney,12.0,RU,1603601780.0,54.0,45.05,136.61,9.29,7.45
532,liyang,12.0,CN,1603601923.0,73.0,29.71,118.29,18.89,1.04
533,bagdarin,100.0,RU,1603601923.0,81.0,54.43,113.6,1.16,1.29
534,ustka,56.0,PL,1603601765.0,90.0,54.58,16.86,10.59,5.53
535,gaspe,5.0,CA,1603601404.0,64.0,48.83,-64.48,3.0,3.6
536,belmonte,40.0,BR,1603601924.0,88.0,-15.86,-38.88,23.0,2.1
537,ucluelet,0.0,CA,1603601697.0,80.0,48.93,-125.55,2.22,3.99
538,pinheiro machado,44.0,BR,1603601924.0,100.0,-31.58,-53.38,15.0,4.02
539,ulladulla,90.0,AU,1603601925.0,93.0,-35.35,150.47,12.0,5.7
541,half moon bay,90.0,US,1603601853.0,87.0,37.46,-122.43,15.56,2.6
542,gizo,36.0,SB,1603601925.0,73.0,-8.1,156.84,29.1,3.49
543,zainsk,40.0,RU,1603601926.0,100.0,55.32,52.07,5.0,3.0
544,kormilovka,75.0,RU,1603601926.0,98.0,55.0,74.1,0.0,6.0
545,san ignacio,40.0,BZ,1603601926.0,94.0,17.16,-89.07,24.0,0.89
546,san carlos de bariloche,75.0,AR,1603601926.0,85.0,-41.15,-71.31,5.0,6.7
547,odweyne,1.0,SO,1603601927.0,37.0,9.41,45.06,23.97,5.39
548,paamiut,100.0,GL,1603601927.0,84.0,61.99,-49.67,-0.59,5.23
549,beira,20.0,MZ,1603601927.0,94.0,-19.84,34.84,22.0,2.6
550,havelock,1.0,US,1603601927.0,100.0,34.88,-76.9,20.0,1.95
551,pangnirtung,53.0,CA,1603601928.0,84.0,66.15,-65.71,-9.12,2.15
552,yenangyaung,100.0,MM,1603601928.0,69.0,20.47,94.88,29.4,1.52
553,awjilah,0.0,LY,1603601928.0,78.0,29.11,21.29,15.5,2.76
554,olindina,5.0,BR,1603601929.0,95.0,-11.37,-38.33,20.13,2.48
557,batemans bay,100.0,AU,1603601703.0,94.0,-35.72,150.18,13.89,0.89
558,denpasar,20.0,ID,1603601930.0,70.0,-8.65,115.22,31.0,4.1
559,shakiso,10.0,ET,1603601930.0,88.0,5.75,38.92,17.0,1.03
560,arona,0.0,ES,1603601930.0,68.0,28.1,-16.68,20.0,5.7
561,sitio novo do tocantins,79.0,BR,1603601930.0,88.0,-5.52,-47.46,23.97,0.77
562,te anau,100.0,NZ,1603601931.0,93.0,-45.42,167.72,13.95,0.46
564,mutoko,21.0,ZW,1603601931.0,61.0,-17.4,32.23,20.05,2.09
566,laguna,1.0,US,1603601932.0,67.0,38.42,-121.42,15.56,3.1
568,sakaiminato,20.0,JP,1603601781.0,45.0,35.55,133.23,19.0,7.7
570,groningen,90.0,NL,1603601933.0,77.0,53.25,6.75,15.0,7.7
571,kantang,75.0,TH,1603601933.0,94.0,7.41,99.52,29.44,2.6
572,zhicheng,32.0,CN,1603601933.0,43.0,30.3,111.5,22.22,2.14
573,gamba,100.0,GA,1603601934.0,90.0,-2.65,10.0,24.46,3.01
574,niquero,100.0,CU,1603601934.0,86.0,20.04,-77.58,25.85,4.21
575,dolores hidalgo,19.0,MX,1603601934.0,76.0,21.16,-100.93,14.44,2.4
576,guarapari,100.0,BR,1603601934.0,98.0,-20.67,-40.5,23.33,0.45
577,ixtapa,90.0,MX,1603601935.0,83.0,20.7,-105.2,29.44,0.25
578,coldwater,1.0,US,1603601687.0,80.0,41.94,-85.0,2.22,1.5
579,palana,100.0,RU,1603601935.0,77.0,59.12,159.97,2.86,2.29
580,marsa matruh,2.0,EG,1603601647.0,70.0,31.35,27.25,22.78,5.29
581,alta floresta,100.0,BR,1603601935.0,96.0,-9.88,-56.09,21.18,0.96
582,abay,75.0,KZ,1603601936.0,80.0,49.63,72.85,-1.0,9.0
583,muli,43.0,MV,1603601936.0,79.0,2.92,73.57,28.04,4.63
584,yakovlevskoye,0.0,RU,1603601936.0,93.0,55.44,37.95,5.0,2.0
585,christiana,87.0,ZA,1603601937.0,28.0,-27.91,25.16,26.07,4.14
586,paranhos,0.0,BR,1603601937.0,74.0,-23.89,-55.43,21.75,1.94
587,buzuluk,100.0,RU,1603601937.0,81.0,52.78,52.26,8.4,2.22
588,pathein,71.0,MM,1603601937.0,68.0,16.78,94.73,30.48,2.58
589,abu dhabi,0.0,AE,1603601937.0,29.0,24.47,54.37,26.0,1.0
590,colesberg,0.0,ZA,1603601938.0,19.0,-30.72,25.1,24.3,1.31
591,tautira,40.0,PF,1603601938.0,83.0,-17.73,-149.15,25.0,4.6
593,datong,32.0,CN,1603601938.0,33.0,40.09,113.29,15.76,1.87
594,homer,1.0,US,1603601939.0,61.0,59.64,-151.55,8.0,1.5
595,roma,75.0,US,1603601939.0,83.0,43.21,-75.46,3.89,1.47
596,naberera,72.0,TZ,1603601939.0,75.0,-4.2,36.93,18.13,3.57
597,baykit,99.0,RU,1603601939.0,94.0,61.67,96.37,-1.75,1.53
598,nerang,61.0,AU,1603601940.0,93.0,-27.98,153.33,23.33,0.45
599,magadan,99.0,RU,1603601940.0,80.0,59.57,150.8,3.81,4.97
600,umiray,100.0,PH,1603601940.0,83.0,15.22,121.41,26.2,0.48
601,port moresby,25.0,PG,1603601941.0,76.0,-9.44,147.18,27.92,3.59
602,murray bridge,34.0,AU,1603601941.0,63.0,-35.12,139.27,12.22,3.13
603,la palma,90.0,US,1603601941.0,72.0,33.85,-118.05,19.0,1.5
604,anloga,40.0,GH,1603601941.0,83.0,5.79,0.9,27.0,2.6
605,sungaipenuh,100.0,ID,1603601942.0,67.0,-2.08,101.38,25.16,2.33
608,mayma,4.0,RU,1603601942.0,81.0,52.02,85.91,0.27,1.79
609,oktyabrskoye,93.0,RU,1603601943.0,86.0,43.06,44.74,4.0,3.0
610,basoko,100.0,CD,1603601943.0,96.0,1.24,23.62,22.27,2.07
611,tsiroanomandidy,8.0,MG,1603601943.0,43.0,-18.77,46.03,23.53,2.39
612,noumea,90.0,NC,1603601939.0,48.0,-22.28,166.46,30.0,3.1
